sno,sna,tot,lat,lng,sarea
1001,大鵬華城,38,24.99116,121.53398,新店區
1002,汐止火車站,56,25.068914,121.662748,汐止區
1003,汐止區公所,46,25.064162,121.658301,汐止區
1004,國泰綜合醫院,56,25.07315,121.662555,汐止區
1005,裕隆公園,40,24.979649,121.546319,新店區
1006,捷運大坪林站(3號出口),32,24.983977,121.541721,新店區
1007,汐科火車站(北),34,25.064106,121.653019,汐止區
1008,興華公園,40,25.060125,121.483101,三重區
1009,三重國民運動中心,68,25.054391,121.488489,三重區
1010,捷運三重站(3號出口),34,25.055883,121.484739,三重區
1011,樟樹國小,48,25.066688,121.640367,汐止區
1012,金龍國小,52,25.0688,121.628908,汐止區
1013,白雲國小,46,25.047578,121.618888,汐止區
1014,東勢宜興活動中心,52,25.039031,121.624333,汐止區
1015,後港公園,40,25.025358,121.428348,新莊區
1016,福營行政中心,42,25.0241250,121.423870,新莊區
1017,西盛公園,36,25.017113,121.428048,新莊區
1018,忠誠里(北新路2段97巷),40,24.974272,121.542779,新店區
1019,仁愛廣場,50,25.090565,121.471621,蘆洲區
1020,重陽國小,42,25.066245 ,121.484337 ,三重區
1021,明志國中,50,25.063396,121.488982,三重區
1022,三重商工,64,25.068681,121.480705,三重區
1023,捷運新莊站(1號出口),58,25.036152 ,121.452069 ,新莊區
1024,原興廣場,52,25.065042,121.633149,汐止區
1025,文化白雲公園,76,25.056875,121.655207,汐止區
1026,秀山國小,62,24.996151 ,121.521988 ,中和區
1027,捷運永安市場站,72,25.001013 ,121.511588 ,中和區
1028,福和國中,66,25.005952,121.520930,永和區
1029,仁愛公園,60,25.009838,121.505825,永和區
1030,中和公園,46,25.000726 ,121.514350 ,中和區
1031,金龍公園,52,25.069473,121.631525 ,汐止區
1032,重陽公園,50,25.085688,121.483618,蘆洲區
1033,捷運三民高中站(1號出口),78,25.085815 ,121.472722 ,蘆洲區
1034,中原公園,58,25.083316 ,121.463894 ,蘆洲區
1035,丹鳳派出所,38,25.027694 ,121.414662 ,新莊區
1036,小金門友誼公園,60,24.977227,121.538140,新店區
1037,中興寶橋路口,52,24.976180 ,121.546870 ,新店區
1038,新莊棒球場,74,25.041603 ,121.446053 ,新莊區
1039,頂溪國小,44,25.015811,121.511261,永和區
1040,永和國小,38,25.002272 ,121.517442 ,永和區
1041,秀朗國小,46,24.999392 ,121.522843 ,永和區
1042,台北慈濟醫院,40,24.985872 ,121.536887 ,新店區
1043,捷運頂溪站(1號出口),36,25.012176 ,121.515271 ,永和區
1044,保安永平路口,42,25.012691 ,121.506471 ,永和區
1045,崇光女中,36,24.972127 ,121.539554 ,新店區
1046,新店高中,42,24.974181 ,121.534209 ,新店區
1047,新莊文化藝術中心,48,25.047150 ,121.444453 ,新莊區
1048,中華中原路口,58,25.054232,121.451752,新莊區
1049,新北高中,60,25.087225 ,121.489525 ,三重區
1050,福壽公園,36,25.051829 ,121.457746 ,新莊區
1051,保長公園,42,25.079523 ,121.674342 ,汐止區
1052,新店公有中央市場,36,24.975308,121.527287,新店區
1053,永平高中,34,25.009790,121.509092,永和區
1054,惠國市場,36,24.970415 ,121.543384 ,新店區
1055,陽光橋,40,24.978494 ,121.524176 ,新店區
1056,中興寶慶街口,50,24.986942 ,121.541950 ,新店區
1057,東方科學園區,52,25.061262,121.649512,汐止區
1058,連興龍安路口,70,25.062989,121.654430,汐止區
1059,青山國民中小學,50,25.061034,121.655586,汐止區
1060,汐止區綜合運動場,44,25.066238,121.659067,汐止區
1061,汐止公園,52,25.067682,121.659763,汐止區
1062,保順環河西路口,58,25.010786,121.503376,永和區
1063,台灣科學園區,40,25.057900,121.634899,汐止區
1064,中正國小,32,24.971496,121.536296,新店區
1065,開元市民活動中心,42,25.066074,121.503557,三重區
1066,雍和科學園區,44,25.058078,121.626018,汐止區
1067,二重國小,46,25.065976,121.477656,三重區
1068,二重國中,70,25.065957,121.480465,三重區
1069,三重行政中心,44,25.060566,121.488229,三重區
1070,新北市立圖書館三重分館,50,25.066099,121.495529,三重區
1071,三張公園,40,25.070507,121.490935,三重區
1072,捷運丹鳳站(1號出口),46,25.029032,121.422799,新莊區
1073,永福橋,50,25.010032,121.524184,永和區
1074,中港國小,50,25.045947,121.447746,新莊區
1075,六合公園,40,25.069499,121.487588,三重區
1076,正義公園,52,25.068551,121.497818,三重區
1077,捷運徐匯中學站(1號出口),56,25.080468,121.479852,蘆洲區
1078,黃城公園,38,25.052382,121.448239,新莊區
1079,捷運菜寮站(3號出口),30,25.060471,121.492198,三重區
1080,捷運三和國中站(1號出口),88,25.075881,121.487795,三重區
1081,中和國民運動中心,50,24.993477,121.487692,中和區
1082,四維公園,40,25.021308,121.422185,新莊區
1083,蘆洲國民運動中心,42,25.091945,121.461613,蘆洲區
1084,和平公園,36,25.070884,121.485712,三重區
1085,三重綜合體育館,52,25.061446,121.491926,三重區
1086,信義公園,36,25.064804,121.498749,三重區
1087,捷運小碧潭站(1號出口),44,24.97152,121.53029,新店區
1088,秀得里(成功路二段),28,25.000705,121.526729,永和區
1089,永平公園,44,25.089987,121.459424,蘆洲區
1090,永康公園,30,25.084764,121.458733,蘆洲區
1091,頭前運動公園,50,25.052180,121.462124,新莊區
1092,頭前國中,42,25.054464,121.459318,新莊區
1093,建國民權路口,46,24.983184,121.537462,新店區
1094,聯邦公園,48,25.064447,121.483710,三重區
1095,捷運蘆洲站,52,25.091637,121.464031,蘆洲區
1096,集成成功路口,32,25.051542,121.488208,三重區
1097,板橋國民運動中心,44,25.022235,121.458152,板橋區
1098,永安公園,38,25.024478,121.477572,板橋區
1099,捷運江子翠站(3號出口),44,25.029729,121.472359,板橋區
1100,音樂公園,48,25.028631,121.480460,板橋區
1101,捷運七張站(1號出口),42,24.974996,121.542767,新店區
1102,北新國小,44,24.974233,121.544428,新店區
1103,捷運新埔站(2號出口),40,25.022095,121.467598,板橋區
1104,聯合醫院板橋院區,34,25.023832,121.457773,板橋區
1105,捷運板橋站(3號出口),68,25.014797,121.462051,板橋區
1106,民生公園,42,25.013087,121.475894,板橋區
1107,新北市政府(新府路),56,25.012374,121.464224,板橋區
1108,捷運板橋站(1號出口),102,25.013174,121.461900,板橋區
1109,板橋地政事務所,52,25.007983,121.463387,板橋區
1110,板橋戶政事務所,44,25.012839,121.456308,板橋區
1111,板橋和平公園,40,24.997679,121.464326,板橋區
1112,碧華公園,36,25.083741,121.487491,三重區
1113,五福里(五華街),52,25.081725,121.493902,三重區
1114,同安公園,30,25.057320,121.499067,三重區
1115,中華里(中華路二段),38,25.045951,121.453766,新莊區
1116,中華自治街口,36,25.047855,121.453202,新莊區
1117,捷運府中站(3號出口),42,25.008999,121.458776,板橋區
1118,捷運亞東醫院站(2號出口),52,24.997830,121.452315,板橋區
1119,新泰公園,42,25.037200,121.444946,新莊區
1120,上林里(環河東路一段),38,25.014999,121.520951,永和區
1121,進安公園,34,25.086031,121.493774,三重區
1122,自強溪尾街口,40,25.078220,121.490157,三重區
1123,捷運三重國小站,54,25.070418,121.497126,三重區
1124,五堵火車站,50,25.077493,121.666869,汐止區
1125,捷運南勢角站(4號出口),56,24.989420,121.509950,中和區
1126,柳堤公園,42,25.087989,121.462192,蘆洲區
1127,新北市立圖書館總館,36,25.001583,121.455524,板橋區
1128,永福國小,36,25.077714,121.480315,三重區
1129,明志國小,46,25.045729,121.426269,泰山區
1130,蘆洲三民公園,34,25.094306,121.460134,蘆洲區
1131,臺北醫院,36,25.043536,121.459772,新莊區
1132,重新重安街口,36,25.058443,121.489751,三重區
1133,柴埕市民活動中心,38,24.966775,121.516479,新店區
1134,思賢國小,52,25.046446,121.457716,新莊區
1135,莊敬公園,38,25.020983,121.470821,板橋區
1136,豐年國小,34,25.031278,121.443230,新莊區
1137,新海長江路口,36,25.02853,121.457367,板橋區
1138,捷運新埔站(4號出口),50,25.023491,121.468559,板橋區
1139,板橋仁愛公園,34,24.996430,121.459696,板橋區
1140,泰山國小,32,25.062345,121.431475,泰山區
1141,縣民民族路口,36,25.010012,121.461097,板橋區
1142,光華東帝士,40,25.010795,121.427836,新莊區
1143,廣福公園,38,24.991643,121.462872,板橋區
1144,板橋四維公園,54,25.025464,121.462633,板橋區
1145,捷運頂埔站(2號出口),60,24.959276,121.419008,土城區
1146,龍門龍濱路口,36,25.073475,121.500977,三重區
1147,青潭國小,40,24.953101,121.551813,新店區
1148,金城忠義路口,34,24.969399,121.440808,土城區
1149,華德公園,38,24.991683,121.453320,板橋區
1150,橋東里(忠孝東路),40,25.073682,121.666257,汐止區
1151,中山國中,38,25.018559,121.467509,板橋區
1152,捷運土城站(2號出口),52,24.972631,121.443563,土城區
1153,四川遠東路口,48,24.998003,121.457355,板橋區
1154,員林社區公園,42,24.977883,121.443237,土城區
1155,中正橋,30,25.017757,121.516809,永和區
1156,北港國小,44,25.089027,121.645946,汐止區
1157,捷運新店站,54,24.958605,121.538659,新店區
1158,錦和運動公園,36,24.992086,121.490671,中和區
1159,新樹公園,32,25.003383,121.433154,新莊區
1160,中和環球購物中心,40,25.006367,121.474223,中和區
1161,楓樹腳公園,36,25.061938,121.434939,泰山區
1162,厚德公園,36,25.071988,121.491200,三重區
1163,板橋信義公園,40,24.996183,121.456476,板橋區
1164,國光里(國光路),34,25.017755,121.458308,板橋區
1165,民生長江路口,36,25.030904,121.463596,板橋區
1166,華福市民活動中心,36,24.995482,121.467525,中和區
1167,浮洲合宜住宅(合安一路),34,24.999329,121.446343,板橋區
1168,建福公園,38,25.027694,121.426685,新莊區
1169,水河里活動中心,52,25.093949,121.473913,蘆洲區
1170,金城延和路口,38,24.989155,121.470454,土城區
1171,國光公園,48,25.019828,121.453852,板橋區
1172,樹林火車站(後站),52,24.992553,121.424652,樹林區
1173,文林國小,32,24.997856,121.426360,樹林區
1174,土城綜合體育場,44,24.983671,121.454211,土城區
1175,板橋福德公園,32,25.011498,121.467415,板橋區
1176,光華公園,32,25.005412,121.413157,樹林區
1177,樹林大安活動中心,36,24.986391,121.414770,樹林區
1178,三民中山一路口,36,25.082229,121.476004,蘆洲區
1179,義學國小,34,25.051762,121.431669,泰山區
1180,自然公園,34,25.089840,121.487987,三重區
1181,板林溪北路口,46,24.990555,121.426350,板橋區
1182,新北市藝文中心,40,25.026542,121.472279,板橋區
1183,大安中央路口,32,24.965619,121.432610,土城區
1184,中和地政事務所,28,24.990393,121.502397,中和區
1185,華夏科技大學,42,24.980672,121.507652,中和區
1186,同興公園,34,25.055188,121.432128,泰山區
1187,新五泰國民運動中心,30,25.055865,121.434262,泰山區
1188,溪洲公園停車場,34,24.986723,121.426820,板橋區
1189,崑崙公園,38,24.993406,121.429636,板橋區
1190,捷運海山站(3號出口),40,24.986923,121.449335,土城區
1191,興化公園,38,25.065234,121.461115,新莊區
1192,潤泰社區,36,25.017953,121.479375,板橋區
1193,西盛館,30,25.011905,121.432713,新莊區
1194,秀朗成功路口,40,24.995821,121.526550,中和區
1195,板橋國中,54,25.024903,121.454310,板橋區
1196,永豐公園活動中心,32,25.021127,121.476853,板橋區
1197,義仁市民活動中心,36,25.050479,121.427667,泰山區
1198,鶯歌國中,34,24.951734,121.342963,鶯歌區
1199,捷運迴龍站(3號出口),60,25.022760,121.413053,新莊區
1200,捷運先嗇宮站(2號出口),50,25.046068,121.470987,三重區
1201,鶯歌火車站(仁愛路),58,24.955591,121.354376,鶯歌區
1202,建國育英路口,50,24.952761,121.347193,鶯歌區
1203,鶯歌陶瓷老街,44,24.952226,121.351035,鶯歌區
1204,立泰里(中環路二段),40,25.045676,121.442133,新莊區
1205,竹圍公園,28,25.138234,121.463395,淡水區
1206,新北市立鶯歌陶瓷博物館,40,24.949549,121.352832,鶯歌區
1207,浮洲合宜住宅(樂群路),46,24.9969909,121.4465092,板橋區
1208,尖山公園,44,24.948220,121.345767,鶯歌區
1209,崇德橋東活動中心,26,25.070512,121.667002,汐止區
1210,樹林區衛生所,38,24.983768,121.415032,樹林區
1211,溪墘公園,36,25.079969,121.476205,蘆洲區
1212,育德國小,34,24.970656,121.392602,樹林區
1213,彭福國小,40,24.980335,121.423104,樹林區
1214,民享藝文特區,36,25.003435,121.475345,中和區
1215,億光電子(樹林高中),40,24.983567,121.423601,樹林區
1216,捷運永寧站(2號出口),44,24.965783,121.436227,土城區
1217,竿蓁市民活動中心,48,25.165090,121.450831,淡水區
1218,長壽親子公園,38,24.991853,121.421371,樹林區
1219,新市國小,36,25.185313,121.444332,淡水區
1220,新北市立圖書館鶯歌分館,36,24.957195,121.349704,鶯歌區
1221,德音國小,36,25.071515,121.435670,五股區
1222,中山北新春街口,40,25.180345,121.444742,淡水區
1223,正德國中,40,25.178512,121.447874,淡水區
1224,金城立體停車場,42,24.984102,121.458595,土城區
1225,先嗇宮,40,25.051190,121.476007,三重區
1226,板橋第一運動場,40,25.009061,121.468352,板橋區
1227,光興國小,36,25.060339,121.500103,三重區
1228,安和市民活動中心,38,24.975317,121.515687,新店區
1229,景安板南路口,30,24.992249,121.504443,中和區
1230,新月橋,50,25.032300,121.450011,新莊區
1231,修德國小,42,25.065295,121.490450,三重區
1232,福祥里(中和溝),38,25.005933,121.499565,中和區
1233,濱海義山路口,40,25.189448,121.438708,淡水區
1234,鴨母港抽水站,40,25.082935,121.456728,蘆洲區
1235,捷運淡水站,106,25.168826,121.444183,淡水區
1236,安成安德街口,36,24.961147,121.509988,新店區
1237,淡水國民運動中心,46,25.186496,121.443261,淡水區
1238,捷運竹圍站,46,25.137658,121.460112,淡水區
1239,龍門公園,38,25.074815,121.498484,三重區
1240,濱海中山北路口,34,25.188887,121.443505,淡水區
1241,永安圖書館,36,25.078599,121.462228,蘆洲區
1242,西盛廣場,34,25.000894,121.431485,新莊區
1243,三峽區公所(三峽老街),42,24.934187,121.369158,三峽區
1244,仁愛文化二路口,50,25.077118,121.374258,林口區
1245,崑崙活力廣場,42,24.993901,121.432880,板橋區
1246,永盛公園,38,25.076133,121.484304,三重區
1247,鷺江廣場,32,25.085621,121.477694,蘆洲區
1248,六張公園,36,25.069661,121.494048,三重區
1249,中山佳林路口,36,25.079592,121.385587,林口區
1250,國立臺北大學(三峽校區),58,24.945553,121.373260,三峽區
1251,林口區公所,34,25.076742,121.388181,林口區
1252,新麗園社區,42,25.070428,121.376882,林口區
1253,中正富國路口,42,25.025940,121.417694,新莊區
1254,大同國小,36,24.981146,121.416844,樹林區
1255,新北市立圖書館五股成功分館,42,25.094784,121.446741,五股區
1256,民德立體停車場,32,24.999098,121.468345,中和區
1257,麗林公有市場,34,25.069123,121.367761,林口區
1258,南樹林火車站,34,24.980236,121.408605,樹林區
1259,新北市立鶯歌高級工商職業學校,40,24.939095,121.334639,鶯歌區
1260,行政院新莊聯合辦公大樓,44,25.055969,121.444423,新莊區
1261,柑園五里聯合活動中心,40,24.950576,121.386183,樹林區
1262,中和自強公園,38,24.999132,121.472513,中和區
1263,富貴森林公園,36,25.083156,121.378464,林口區
1264,林口自強公園,36,25.078126,121.397208,林口區
1265,永昌里兒一公園,36,24.956661,121.339645,鶯歌區
1266,捷運林口站(1號出口),60,25.065970,121.361962,林口區
1267,南興公園,34,25.059779,121.652549,汐止區
1268,立言公園,34,25.073427,121.362340,林口區
1269,溪北公園,36,24.990060,121.432281,板橋區
1270,頂新祖田市民活動中心,34,24.952762,121.411701,土城區
1271,貴和市民活動中心,34,25.034961,121.421928,泰山區
1272,頂埔國小,34,24.956343,121.414421,土城區
1273,三峽區礁溪行政中心,32,24.928438,121.375921,三峽區
1274,林口國小,36,25.080533,121.389307,林口區
1275,南勢市民活動中心,34,25.074035,121.358924,林口區
1276,青山廣場,36,24.977837,121.459751,土城區
1277,林口社區運動公園,36,25.074150,121.377001,林口區
1278,捷運新莊站 ( 2號出口 ),40,25.036075,121.452792,新莊區
1279,俊英俊保路口,30,25.009150,121.425183,樹林區
1280,洲子洋公園,38,25.094701,121.448105,五股區
1281,學成大義路口,46,24.945099,121.378671,樹林區
1282,捷運頭前庄站(1號出口),52,25.039365,121.460856,新莊區
1283,文化機車立體停車場,32,25.172485,121.438806,淡水區
1284,成德公園,36,25.105052,121.452963,五股區
1285,頭湖國小,38,25.081673,121.372687,林口區
1286,金城立德路口,38,24.986691,121.465481,土城區
1287,恩主公醫院,66,24.938912,121.363553,三峽區
1288,中和區公所,32,24.998558,121.500533,中和區
1289,忠山市民活動中心,36,25.078202,121.624493,汐止區
1290,三重永豐公園,32,25.074629,121.478162,三重區
1291,臺灣藝術大學,40,25.007502,121.448000,板橋區
1292,新莊體育館,40,25.040766,121.452459,新莊區
1293,永和耕莘醫院,32,25.011232,121.517701,永和區
1294,三多國小,34,25.016405,121.407135,樹林區
1295,永安兒童公園,30,25.082273,121.482236,蘆洲區
1296,新北市立中和高級中學,36,24.993700,121.478230,中和區
1297,扶輪公園,40,25.072864,121.369480,林口區
1298,安邦公園,34,24.996867,121.496647,中和區
1299,立德公園,34,25.076441,121.367223,林口區
1300,新北市政府(新站路),60,25.012614,121.466455,板橋區
1301,清水高中,34,24.982756,121.465444,土城區
1302,板橋車站,98,25.015519,121.463735,板橋區
1303,樹林國民運動中心,34,25.004186,121.422847,樹林區
1304,捷運輔大站(4號出口),42,25.033025,121.436484,新莊區
1305,民安東民全街口,36,25.020774,121.429556,新莊區
1306,中興北街175巷口,32,25.055970,121.471327,三重區
1307,仁愛路151巷口,44,25.064819,121.663885,汐止區
1308,五股工商立體停車場,40,25.082494,121.439555,五股區
1309,沛陂社區公園,34,24.963289,121.419672,土城區
1310,佳和公園,34,25.006927,121.503171,中和區
1311,溪頭公園,40,25.033086,121.468403,板橋區
1312,龍鳳公園,40,25.021447,121.416497,新莊區
1313,伊吉邦社區,46,25.030186,121.413402,新莊區
1314,三多第1市民活動中心,34,25.016361,121.404257,樹林區
1315,新北高工,44,24.982770,121.449900,土城區
1316,瑞芳火車站,44,25.108506,121.806460,瑞芳區
1317,長風社區,36,24.978108,121.439369,土城區
1318,永和國民運動中心,40,25.003555,121.524246,永和區
1319,民樂人行廣場,36,25.001834,121.482594,中和區
1320,民生親子公園,30,24.992983,121.428196,樹林區
1321,樹林工業區,38,25.000868,121.416091,樹林區
1322,防災公園,36,24.938911,121.373676,三峽區
1323,尖山國中,32,24.944300,121.342089,鶯歌區
1324,新北市立圖書館新店分館,36,24.982138,121.540903,新店區
1325,浮洲火車站,48,25.004098,121.444447,板橋區
1326,捷運海山站(1號出口),80,24.984695,121.448504,土城區
1327,深坑區公所(深坑老街),50,25.0015,121.616311,深坑區
1328,東南科技大學,34,25.0033,121.602501,深坑區
1329,德光國光街口,34,25.003136,121.468087,中和區
1330,瑞芳區公所,30,25.108472,121.809735,瑞芳區
1331,永和國父紀念館,30,25.008390,121.520234,永和區
1332,台北得意GO,30,25.074424,121.467852,五股區
1333,大觀國中,40,25.011210,121.447237,板橋區
1334,太陽公園,32,25.086448,121.485599,三重區
1335,三重五常公園,28,25.080648,121.496149,三重區
1336,三德公園,36,25.074974,121.500542,三重區
1337,力行大勇街口,30,25.071928,121.481508,三重區
1338,蘆洲延平派出所,36,25.081620,121.461620,蘆洲區
1339,永安南路九芎街71巷口,36,25.077564,121.466071,蘆洲區
1340,福和宮,50,25.001110,121.501991,中和區
1341,飛駝社區(興南路),42,24.983471,121.504826,中和區
1342,保平路214巷,30,25.007010,121.509208,永和區
1343,汐科火車站(南),48,25.062884,121.646597,汐止區
1344,樹林國小,34,24.989103,121.418296,樹林區
1345,永吉國小,36,24.958747,121.333095,鶯歌區
1346,中園國小,36,24.927551,121.366919,三峽區
1347,介壽國小,30,24.930341,121.378835,三峽區
1348,安溪國中,32,24.926790,121.371957,三峽區
1349,龍埔國小,38,24.941224,121.376763,三峽區
1350,大安路與中山路二段口,34,24.983043,121.411318,樹林區
1351,樹林區公所,40,24.989760,121.424780,樹林區
1352,蘆洲重陽大樓,30,25.085055,121.481887,蘆洲區
1353,埔墘國小,34,25.019078,121.473724,板橋區
1354,圓通錦和路口,46,24.989236,121.491482,中和區
1355,下庄市場,30,25.146498,121.399748,八里區
1356,亞洲員安路口,34,24.972621,121.434796,土城區
1357,大安路307巷口,32,24.992158,121.417726,樹林區
1358,漁人碼頭,50,25.183869,121.411178,淡水區
1359,味王街,30,24.974674,121.404424,樹林區
1360,福基公園,32,25.058100,121.460892,新莊區
1361,振義里公園,30,25.023888,121.483965,板橋區
1362,安溪國小,36,24.930621,121.372344,三峽區
1363,中和安和路口,34,24.999667,121.506022,中和區
1364,元氣大鎮社區,30,25.005718,121.478997,中和區
1365,員勝公園,40,25.010284,121.478686,中和區
1366,永和自由街,32,25.005200,121.513339,永和區
1367,安樂宜安路口,36,24.995273,121.513506,中和區
1368,昌隆國小,36,25.052129,121.454891,新莊區
1369,捷運新莊副都心站,46,25.059145,121.446614,新莊區
1370,捷運泰山站,34,25.053127,121.439683,泰山區
1371,八里中庄市場綜合大樓,36,25.159934,121.414074,八里區
1372,江翠國中,30,25.027987,121.468512,板橋區
1373,捷運新北產業園區站,44,25.062029,121.459184,新莊區
1374,捷運泰山貴和站,36,25.033192,121.422215,泰山區
1375,龍形停車場,40,25.130410,121.451302,八里區
1376,捷運紅樹林站,58,25.153578,121.459124,淡水區
1377,大庄一號公園,28,25.181957,121.422185,淡水區
1378,三井Outlet,50,25.071574,121.366303,林口區
1379,貿商國宅,40,25.069463,121.43031,五股區
1380,中正北路193巷(愛買三重店),42,25.071362,121.475985,三重區
1381,翔譽雙子星,36,25.053638,121.492924,三重區
1382,明志科技大學,50,25.040434,121.422548,泰山區
1383,三民高中(民權路),36,25.088024,121.473928,蘆洲區
1384,環河福德南路口,32,25.060285,121.502173,三重區
1385,文林國小(潭興街),34,24.998601,121.424892,樹林區
1386,林口老街,42,25.077153,121.393777,林口區
1387,板橋果菜批發市場,40,25.021153,121.450020,板橋區
1388,安和公園,34,24.974110,121.518853,新店區
1389,東陽市民活動中心,32,24.982192,121.412517,樹林區
1390,遠雄左岸,40,25.009850,121.487799,中和區
1391,瓦磘溝(福真里),32,25.004294,121.494692,中和區
1392,中正路161巷口,36,24.992938,121.499333,中和區
1394,瑞峰橋,28,25.107120,121.810410,瑞芳區
1395,民族二街明峰街口,30,25.071049,121.635015,汐止區
1401,光復國小,38,25.015064,121.481930,板橋區
1402,世貿國家公園社區,30,25.072887,121.658646,汐止區
1403,新店新和國小,42,24.984975,121.517682,新店區
1404,立德青雲路口,36,24.988355,121.460675,土城區
1405,新北市林口行政園區,42,25.070158,121.363632,林口區
1406,工建樟樹一路口,36,25.063062,121.641033,汐止區
1407,中和青年社會住宅,32,24.991135,121.519329,中和區
1408,蘆洲李宅古蹟,30,25.084959,121.466551,蘆洲區
1409,捷運府中站(2號出口),38,25.009537,121.460148,板橋區
1410,新莊勞工中心,32,25.020332,121.433736,新莊區
1411,名利橋,32,25.007850,121.500986,永和區
1412,捷運大坪林站(1號出口),28,24.982755,121.541249,新店區
1413,福和國中停車場,48,25.005011,121.522665,永和區
1414,元隆公園,74,25.007307,121.485051,中和區
1415,福美公園,40,25.055033,121.461081,新莊區
1416,輔仁大學附設醫院,40,25.039272,121.431004,新莊區
1417,民視數位媒體總部,40,25.079876,121.379259,林口區
1418,五股郵局,32,25.101774,121.451127,五股區
1419,新市一路一段99巷口,46,25.187429,121.431016,淡水區
1420,國泰街111巷口,34,25.006321,121.465773,板橋區
1421,湳雅觀光夜市(津渡橋),40,25.007585,121.452440,板橋區
1422,學成公園,34,24.988246,121.451187,土城區
1423,鳳祥公園,30,24.962819,121.330254,鶯歌區
1424,光明市場,34,25.057335,121.491809,三重區
1425,中興路二段100巷口,30,24.971355,121.547496,新店區
1426,福和橋,36,25.004536,121.527850,永和區
1427,土城國中,32,24.962443,121.430347,土城區
1428,安光公園,34,24.964233,121.514462,新店區
1429,崇德國小,40,25.069378,121.669788,汐止區
1430,中華中央路一段242巷口,38,24.985510,121.443450,土城區
1431,公五公園,44,25.086580,121.444520,五股區
1432,碧潭西岸,40,24.956562,121.534795,新店區
1433,樹林大安站,56,24.997312,121.421725,樹林區
1434,廣停二停車場,36,25.075711,121.370261,林口區
1435,民義公園,40,25.088350,121.434500,五股區
1436,大崙公園,32,25.076613,121.359704,林口區
1437,成州國小,28,25.099230,121.450630,五股區
1438,中興北街42巷17弄,34,25.050060,121.468920,三重區
1439,江翠國小,34,25.032480,121.474420,板橋區
1440,華江一華江九路口,40,25.032884,121.466442,板橋區
1441,三光國小(金滿意),36,25.055960,121.496874,三重區
1442,蘆洲中路公園,34,25.082299,121.468143,蘆洲區
1443,林口高中,38,25.073840,121.380300,林口區
1444,雙和橋,34,25.005731,121.505743,永和區
1445,海山高中,52,25.009108,121.471493,板橋區
1446,環河西路一段95巷口,32,25.017830,121.511957,永和區
1447,碧河宮,40,24.996726,121.493134,中和區
1448,萬板文聖街口,46,25.026295,121.479675,板橋區
1449,明德高中,34,24.907449,121.364848,三峽區
1450,鳳鳴國小,32,24.969198,121.334806,鶯歌區
1451,林本源園邸,42,25.011172,121.455710,板橋區
1452,藍天大樓,36,25.053098,121.470165,三重區
1453,忠孝國中,46,25.004810,121.461195,板橋區
1454,大智公園,30,25.063608,121.494449,三重區
1455,國際二國際一路口,38,24.976171,121.334938,鶯歌區
1456,三重高中,34,25.054777,121.491710,三重區
1457,昌平公園,40,25.058664,121.458109,新莊區
1458,新北市客家文化園區,38,24.941729,121.359538,三峽區
1459,台北海洋科技大學,38,25.191229,121.427011,淡水區
1460,蘭庭序大廈,30,25.072070,121.652070,汐止區
1461,福和路7巷口,30,25.008540,121.524732,永和區
1462,捷運新店區公所站(1 號出口),42,24.967369,121.541011,新店區
1463,新泰游泳池,26,25.045414,121.442734,新莊區
1464,森林公園,36,24.948177,121.379760,樹林區
1465,馥華公園,34,25.006117,121.445449,板橋區
1466,光復高中,42,25.017443,121.482513,板橋區
1467,南雅育智路口,46,24.953961,121.345824,鶯歌區
1468,穀保家商,38,25.068097,121.471028,三重區
1469,文德國小(公館街),38,25.021336,121.459595,板橋區
1470,學成大成路口,42,24.946248,121.382719,樹林區
1471,石雕公園,32,25.030261,121.469469,板橋區
1472,民生縣民大道口,40,25.018213,121.471011,板橋區
1473,新北市藝文中心(文化路二段124巷),36,25.025626,121.471401,板橋區
1474,四維公園地下停車場,60,25.025618,121.463967,板橋區
1475,廣福派出所,34,24.988019,121.456247,土城區
1476,新和活動中心,38,24.986771,121.521829,新店區
1477,大眾廟,40,25.037380,121.457660,新莊區
1478,化成公園,32,25.047860,121.461962,新莊區
1479,中悅兒童公園,36,24.941359,121.370524,三峽區
1480,新北市工商展覽中心,46,25.064345,121.447585,五股區
1481,金城裕民路口(中正國中),44,24.982933,121.456229,土城區
1482,圓通路335巷33弄,32,24.988992,121.493033,中和區
1483,海洋公園,36,24.947490,121.376895,三峽區
1484,浮洲合宜住宅(合宜一路),32,24.996520,121.442760,板橋區
1485,文山國中,30,24.955310,121.539270,新店區
1486,臺北大學(資訊中心),56,24.943170,121.369520,三峽區
1487,捷運府中站(1號出口),76,25.008180,121.459010,板橋區
1488,新莊田徑場,42,25.043570,121.452440,新莊區
1489,新泰國中,30,25.042880,121.444260,新莊區
1490,碧潭渡船頭,32,24.953100,121.537460,新店區
1491,山佳火車站,32,24.972220,121.392640,樹林區
1492,新北市勞工活動中心,34,25.061490,121.450980,五股區
1493,板橋重慶公園,40,25.000080,121.463160,板橋區
1494,林口社區運動公園(公園路),40,25.074640,121.374400,林口區
1495,山北公園,32,25.006530,121.500140,中和區
1496,景平大勇街口,38,24.992020,121.515630,中和區
1497,中港大排願景館,30,25.058940,121.451170,新莊區
1498,頭前國小,30,25.052480,121.465270,新莊區
1499,淡金北新站,46,25.180180,121.453330,淡水區
1500,忠孝活動中心,28,25.016770,121.515280,永和區
1501,淡水海關碼頭園區,40,25.174760,121.431550,淡水區
1502,縣民漢生東路口,60,25.015600,121.467090,板橋區
1503,時光公園,40,25.036150,121.479730,板橋區
1504,積穗國中,32,24.999770,121.478080,中和區
1505,員和公園,34,24.979040,121.442540,土城區
1506,環河公園,36,25.016660,121.450640,板橋區
1507,中興中正路口,30,24.969910,121.546170,新店區
1508,新莊國民運動中心,40,25.039610,121.449620,新莊區
1509,佳和公園(中山路二段64巷),36,25.004690,121.502960,中和區
1510,三鶯國民運動中心,32,24.936140,121.369410,三峽區